{"meta":{"code":200},"response":{"venues":[{"id":"55c6e371498eb8845e94c84b","name":"Hot Cakes Molten Chocolate Cakery","contact":{"phone":"2062582591","formattedPhone":"(206) 258-2591","twitter":"getyourhotcakes","facebook":"10150155004285173","facebookUsername":"getyourhotcakes","facebookName":"Hot Cakes"},"location":{"address":"1650 E Olive Way","crossStreet":"at Belmont Ave E","lat":47.61975114261211,"lng":-122.32393626490352,"distance":1313,"postalCode":"98102","cc":"US","city":"Seattle","state":"WA","country":"United States","formattedAddress":["1650 E Olive Way (at Belmont Ave E)","Seattle, WA 98102","United States"]},"categories":[{"id":"4bf58dd8d48988d1d0941735","name":"Dessert Shop","pluralName":"Dessert Shops","shortName":"Desserts","icon":{"prefix":"https://ss3.4sqi.net/img/categories_v2/food/dessert_","suffix":".png"},"primary":true}],"verified":false,"stats":{"checkinsCount":27,"usersCount":26,"tipCount":0},"url":"http://www.getyourhotcakes.com/molten-chocolate-cakery/","specials":{"count":0,"items":[]},"hereNow":{"count":3,"summary":"3 people are here","groups":[{"type":"others","name":"Other people here","count":3,"items":[]}]},"referralId":"v-1439701896"},{"id":"4b57c5c7f964a520534028e3","name":"A Piece Of Cake","contact":{"phone":"2066238284","formattedPhone":"(206) 623-8284"},"location":{"address":"514 S King St","crossStreet":"btwn 5th & 6th Ave S","lat":47.59829224973088,"lng":-122.32688308916173,"distance":1352,"postalCode":"98104","cc":"US","city":"Seattle","state":"WA","country":"United States","formattedAddress":["514 S King St (btwn 5th & 6th Ave S)","Seattle, WA 98104","United States"]},"categories":[{"id":"4bf58dd8d48988d16a941735","name":"Bakery","pluralName":"Bakeries","shortName":"Bakery","icon":{"prefix":"https://ss3.4sqi.net/img/categories_v2/food/bakery_","suffix":".png"},"primary":true}],"verified":false,"stats":{"checkinsCount":1143,"usersCount":726,"tipCount":15},"url":"http://www.apieceofcakeseattle.com","hasMenu":true,"menu":{"type":"Menu","label":"Menu","anchor":"View Menu","url":"https://foursquare.com/v/a-piece-of-cake/4b57c5c7f964a520534028e3/menu","mobileUrl":"https://foursquare.com/v/4b57c5c7f964a520534028e3/device_menu"},"specials":{"count":0,"items":[]},"hereNow":{"count":0,"summary":"Nobody here","groups":[]},"referralId":"v-1439701896"},{"id":"4fbff0cae4b03278510f5d87","name":"cake spy","contact":{},"location":{"lat":47.614479064941406,"lng":-122.32600402832031,"distance":752,"postalCode":"98122","cc":"US","city":"Seattle","state":"WA","country":"United States","formattedAddress":["Seattle, WA 98122","United States"]},"categories":[{"id":"4bf58dd8d48988d128951735","name":"Gift Shop","pluralName":"Gift Shops","shortName":"Gift Shop","icon":{"prefix":"https://ss3.4sqi.net/img/categories_v2/shops/giftshop_","suffix":".png"},"primary":true}],"verified":false,"stats":{"checkinsCount":1,"usersCount":1,"tipCount":0},"specials":{"count":0,"items":[]},"hereNow":{"count":0,"summary":"Nobody here","groups":[]},"referralId":"v-1439701896"},{"id":"55cc08ab498e15c2fec3680a","name":"Hot Cakes Molten Chocolate Cakery","contact":{},"location":{"lat":47.61966912453853,"lng":-122.32412864213782,"distance":1297,"cc":"US","city":"Seattle","state":"WA","country":"United States","formattedAddress":["Seattle, WA","United States"]},"categories":[{"id":"4bf58dd8d48988d1d0941735","name":"Dessert Shop","pluralName":"Dessert Shops","shortName":"Desserts","icon":{"prefix":"https://ss3.4sqi.net/img/categories_v2/food/dessert_","suffix":".png"},"primary":true}],"verified":false,"stats":{"checkinsCount":9,"usersCount":9,"tipCount":0},"specials":{"count":0,"items":[]},"hereNow":{"count":1,"summary":"One other person is here","groups":[{"type":"others","name":"Other people here","count":1,"items":[]}]},"referralId":"v-1439701896"},{"id":"43125000f964a52055271fe3","name":"The Cheesecake Factory","contact":{"phone":"2066525400","formattedPhone":"(206) 652-5400","twitter":"cheesecake","facebook":"106628409154","facebookUsername":"thecheesecakefactory","facebookName":"The Cheesecake Factory"},"location":{"address":"700 Pike St","crossStreet":"at 7th Ave","lat":47.61180431158653,"lng":-122.33323481799368,"distance":234,"postalCode":"98101","cc":"US","city":"Seattle","state":"WA","country":"United States","formattedAddress":["700 Pike St (at 7th Ave)","Seattle, WA 98101","United States"]},"categories":[{"id":"4bf58dd8d48988d14e941735","name":"American Restaurant","pluralName":"American Restaurants","shortName":"American","icon":{"prefix":"https://ss3.4sqi.net/img/categories_v2/food/default_","suffix":".png"},"primary":true}],"verified":true,"stats":{"checkinsCount":17180,"usersCount":8527,"tipCount":91},"url":"http://www.thecheesecakefactory.com","hasMenu":true,"menu":{"type":"Menu","label":"Menu","anchor":"View Menu","url":"https://foursquare.com/v/the-cheesecake-factory/43125000f964a52055271fe3/menu","mobileUrl":"https://foursquare.com/v/43125000f964a52055271fe3/device_menu"},"specials":{"count":0,"items":[]},"hereNow":{"count":0,"summary":"Nobody here","groups":[]},"referralId":"v-1439701896"},{"id":"4b120420f964a520388823e3","name":"Sway & Cake","contact":{"phone":"2066242699","formattedPhone":"(206) 624-2699"},"location":{"address":"1631 6th Ave","crossStreet":"at Olive Way","lat":47.612876,"lng":-122.336381,"distance":430,"postalCode":"98101","cc":"US","city":"Seattle","state":"WA","country":"United States","formattedAddress":["1631 6th Ave (at Olive Way)","Seattle, WA 98101","United States"]},"categories":[{"id":"4bf58dd8d48988d108951735","name":"Women's Store","pluralName":"Women's Stores","shortName":"Women's Store","icon":{"prefix":"https://ss3.4sqi.net/img/categories_v2/shops/apparel_women_","suffix":".png"},"primary":true}],"verified":false,"stats":{"checkinsCount":109,"usersCount":89,"tipCount":0},"specials":{"count":0,"items":[]},"hereNow":{"count":0,"summary":"Nobody here","groups":[]},"referralId":"v-1439701896"},{"id":"4abec5cef964a520ce8f20e3","name":"Cake House","contact":{"phone":"2062232766","formattedPhone":"(206) 223-2766"},"location":{"address":"620 S Weller St","lat":47.59754772995179,"lng":-122.32544166881094,"distance":1469,"postalCode":"98104","cc":"US","city":"Seattle","state":"WA","country":"United States","formattedAddress":["620 S Weller St","Seattle, WA 98104","United States"]},"categories":[{"id":"4bf58dd8d48988d16a941735","name":"Bakery","pluralName":"Bakeries","shortName":"Bakery","icon":{"prefix":"https://ss3.4sqi.net/img/categories_v2/food/bakery_","suffix":".png"},"primary":true}],"verified":false,"stats":{"checkinsCount":124,"usersCount":89,"tipCount":5},"specials":{"count":0,"items":[]},"hereNow":{"count":0,"summary":"Nobody here","groups":[]},"referralId":"v-1439701896"},{"id":"4ec43a3a0aaf9233ed472551","name":"Cake Day @ Big Fish Games","contact":{},"location":{"lat":47.62088100729547,"lng":-122.36187018798435,"distance":2492,"postalCode":"98119","cc":"US","city":"Seattle","state":"WA","country":"United States","formattedAddress":["Seattle, WA 98119","United States"]},"categories":[{"id":"4bf58dd8d48988d16a941735","name":"Bakery","pluralName":"Bakeries","shortName":"Bakery","icon":{"prefix":"https://ss3.4sqi.net/img/categories_v2/food/bakery_","suffix":".png"},"primary":true}],"verified":false,"stats":{"checkinsCount":205,"usersCount":10,"tipCount":0},"specials":{"count":0,"items":[]},"hereNow":{"count":0,"summary":"Nobody here","groups":[]},"referralId":"v-1439701896"},{"id":"4b3d1a7df964a520078e25e3","name":"Cake Skincare","contact":{},"location":{"address":"1811 Queen Anne Ave N","lat":47.63522,"lng":-122.356972,"distance":3358,"cc":"US","city":"Seattle","state":"WA","country":"United States","formattedAddress":["1811 Queen Anne Ave N","Seattle, WA","United States"]},"categories":[{"id":"4bf58dd8d48988d1ed941735","name":"Spa","pluralName":"Spas","shortName":"Spa","icon":{"prefix":"https://ss3.4sqi.net/img/categories_v2/shops/spa_","suffix":".png"},"primary":true}],"verified":false,"stats":{"checkinsCount":69,"usersCount":16,"tipCount":0},"hasMenu":true,"menu":{"type":"Services","label":"Services","anchor":"View Services","url":"https://foursquare.com/v/cake-skincare/4b3d1a7df964a520078e25e3/menu","mobileUrl":"https://foursquare.com/v/4b3d1a7df964a520078e25e3/device_menu"},"specials":{"count":0,"items":[]},"hereNow":{"count":0,"summary":"Nobody here","groups":[]},"referralId":"v-1439701896"},{"id":"4f321b2919836c91c7b6781f","name":"Sugar! Cake Studio","contact":{"phone":"2062824832","formattedPhone":"(206) 282-4832"},"location":{"address":"110 Elliott Ave W","lat":47.618835,"lng":-122.358757,"distance":2177,"postalCode":"98119","cc":"US","city":"Seattle","state":"WA","country":"United States","formattedAddress":["110 Elliott Ave W","Seattle, WA 98119","United States"]},"categories":[{"id":"4bf58dd8d48988d16a941735","name":"Bakery","pluralName":"Bakeries","shortName":"Bakery","icon":{"prefix":"https://ss3.4sqi.net/img/categories_v2/food/bakery_","suffix":".png"},"primary":true}],"verified":false,"stats":{"checkinsCount":0,"usersCount":0,"tipCount":0},"url":"http://www.theartisancakeguild.com","specials":{"count":0,"items":[]},"hereNow":{"count":0,"summary":"Nobody here","groups":[]},"referralId":"v-1439701896"},{"id":"4d84f6f3e83fa143fbab6fa1","name":"Artisan Cake Guild","contact":{},"location":{"lat":47.619769,"lng":-122.359762,"distance":2293,"cc":"US","state":"Washington","country":"United States","formattedAddress":["Washington","United States"]},"categories":[{"id":"4bf58dd8d48988d1f5931735","name":"Dim Sum Restaurant","pluralName":"Dim Sum Restaurants","shortName":"Dim Sum","icon":{"prefix":"https://ss3.4sqi.net/img/categories_v2/food/dimsum_","suffix":".png"},"primary":true}],"verified":false,"stats":{"checkinsCount":6,"usersCount":2,"tipCount":0},"specials":{"count":0,"items":[]},"hereNow":{"count":0,"summary":"Nobody here","groups":[]},"referralId":"v-1439701896"},{"id":"5074f2bce4b0bebb68638abf","name":"Ti 22","contact":{"phone":"2067240194","formattedPhone":"(206) 724-0194","twitter":"ti22restaurant","facebook":"153375221475896","facebookUsername":"TheFishCakeFactory","facebookName":"Ti 22 Restaurant"},"location":{"address":"2510 4th Ave","crossStreet":"Vine St.","lat":47.61696264678073,"lng":-122.3466779897277,"distance":1300,"postalCode":"98121","cc":"US","city":"Seattle","state":"WA","country":"United States","formattedAddress":["2510 4th Ave (Vine St.)","Seattle, WA 98121","United States"]},"categories":[{"id":"4bf58dd8d48988d149941735","name":"Thai Restaurant","pluralName":"Thai Restaurants","shortName":"Thai","icon":{"prefix":"https://ss3.4sqi.net/img/categories_v2/food/thai_","suffix":".png"},"primary":true}],"verified":false,"stats":{"checkinsCount":635,"usersCount":375,"tipCount":12},"url":"http://www.ti22restaurant.com","hasMenu":true,"menu":{"type":"Menu","label":"Menu","anchor":"View Menu","url":"https://foursquare.com/v/ti-22/5074f2bce4b0bebb68638abf/menu","mobileUrl":"https://foursquare.com/v/5074f2bce4b0bebb68638abf/device_menu","externalUrl":"http://www.ti22restaurant.com/menu/"},"specials":{"count":0,"items":[]},"hereNow":{"count":1,"summary":"One other person is here","groups":[{"type":"others","name":"Other people here","count":1,"items":[]}]},"referralId":"v-1439701896"},{"id":"511cfd38e4b0b7b5dfd5827d","name":"My Sweet lil Cakes","contact":{"phone":"2062653002","formattedPhone":"(206) 265-3002","twitter":"mysweetlilcakes"},"location":{"address":"1208 Pine St","crossStreet":"at Melrose Ave","lat":47.62009547736535,"lng":-122.33750064900191,"distance":1203,"postalCode":"98101","cc":"US","city":"Seattle","state":"WA","country":"United States","formattedAddress":["1208 Pine St (at Melrose Ave)","Seattle, WA 98101","United States"]},"categories":[{"id":"4bf58dd8d48988d1cb941735","name":"Food Truck","pluralName":"Food Trucks","shortName":"Food Truck","icon":{"prefix":"https://ss3.4sqi.net/img/categories_v2/food/streetfood_","suffix":".png"},"primary":true}],"verified":false,"stats":{"checkinsCount":105,"usersCount":89,"tipCount":3},"url":"http://mysweetlilcakes.com","specials":{"count":0,"items":[]},"hereNow":{"count":0,"summary":"Nobody here","groups":[]},"referralId":"v-1439701896"},{"id":"4d05300437036dcb983715fb","name":"New Renaissance Cakes","contact":{},"location":{"address":"301 Queen Anne Ave N","lat":47.62106922235712,"lng":-122.35728730448157,"distance":2212,"postalCode":"98109","cc":"US","city":"Seattle","state":"WA","country":"United States","formattedAddress":["301 Queen Anne Ave N","Seattle, WA 98109","United States"]},"categories":[{"id":"4bf58dd8d48988d1d0941735","name":"Dessert Shop","pluralName":"Dessert Shops","shortName":"Desserts","icon":{"prefix":"https://ss3.4sqi.net/img/categories_v2/food/dessert_","suffix":".png"},"primary":true}],"verified":false,"stats":{"checkinsCount":18,"usersCount":7,"tipCount":0},"specials":{"count":0,"items":[]},"hereNow":{"count":0,"summary":"Nobody here","groups":[]},"referralId":"v-1439701896"},{"id":"4bd4918729eb9c743ade91e1","name":"Decadence Custom Cakes","contact":{},"location":{"address":"110 Elliott Ave W Ste 182","lat":47.61882305145264,"lng":-122.35875427722931,"distance":2176,"postalCode":"98119","cc":"US","city":"Seattle","state":"WA","country":"United States","formattedAddress":["110 Elliott Ave W Ste 182","Seattle, WA 98119","United States"]},"categories":[{"id":"4bf58dd8d48988d16a941735","name":"Bakery","pluralName":"Bakeries","shortName":"Bakery","icon":{"prefix":"https://ss3.4sqi.net/img/categories_v2/food/bakery_","suffix":".png"},"primary":true}],"verified":false,"stats":{"checkinsCount":9,"usersCount":4,"tipCount":0},"specials":{"count":0,"items":[]},"hereNow":{"count":0,"summary":"Nobody here","groups":[]},"referralId":"v-1439701896"},{"id":"4fb70f6ce4b023a707b3317b","name":"Hot Cakes Molten Chocolate Cakery","contact":{"phone":"2064203431","formattedPhone":"(206) 420-3431","twitter":"getyourhotcakes","facebook":"10150155004285173","facebookUsername":"getyourhotcakes","facebookName":"Hot Cakes"},"location":{"address":"5427 Ballard Ave NW","lat":47.66794698040561,"lng":-122.3856430848363,"distance":7587,"postalCode":"98107","cc":"US","city":"Seattle","state":"WA","country":"United States","formattedAddress":["5427 Ballard Ave NW","Seattle, WA 98107","United States"]},"categories":[{"id":"4bf58dd8d48988d1d0941735","name":"Dessert Shop","pluralName":"Dessert Shops","shortName":"Desserts","icon":{"prefix":"https://ss3.4sqi.net/img/categories_v2/food/dessert_","suffix":".png"},"primary":true}],"verified":false,"stats":{"checkinsCount":5468,"usersCount":3308,"tipCount":66},"url":"http://www.getyourhotcakes.com","hasMenu":true,"menu":{"type":"Menu","label":"Menu","anchor":"View Menu","url":"https://foursquare.com/v/hot-cakes-molten-chocolate-cakery/4fb70f6ce4b023a707b3317b/menu","mobileUrl":"https://foursquare.com/v/4fb70f6ce4b023a707b3317b/device_menu"},"specials":{"count":0,"items":[]},"hereNow":{"count":0,"summary":"Nobody here","groups":[]},"referralId":"v-1439701896"},{"id":"4f32538c19836c91c7ccbe50","name":"Madeleines European Cakes","contact":{"phone":"2062821183","formattedPhone":"(206) 282-1183"},"location":{"address":"501 2nd Ave W","lat":47.623364,"lng":-122.359345,"distance":2488,"postalCode":"98119","cc":"US","city":"Seattle","state":"WA","country":"United States","formattedAddress":["501 2nd Ave W","Seattle, WA 98119","United States"]},"categories":[{"id":"4bf58dd8d48988d16a941735","name":"Bakery","pluralName":"Bakeries","shortName":"Bakery","icon":{"prefix":"https://ss3.4sqi.net/img/categories_v2/food/bakery_","suffix":".png"},"primary":true}],"verified":false,"stats":{"checkinsCount":0,"usersCount":0,"tipCount":0},"specials":{"count":0,"items":[]},"hereNow":{"count":0,"summary":"Nobody here","groups":[]},"referralId":"v-1439701896"},{"id":"4ada0a5cf964a520a81d21e3","name":"Morfey's Cakes","contact":{"phone":"2062838557","formattedPhone":"(206) 283-8557"},"location":{"address":"110 Denny Way","lat":47.618731,"lng":-122.354822,"distance":1915,"postalCode":"98109","cc":"US","city":"Seattle","state":"WA","country":"United States","formattedAddress":["110 Denny Way","Seattle, WA 98109","United States"]},"categories":[{"id":"4bf58dd8d48988d1d0941735","name":"Dessert Shop","pluralName":"Dessert Shops","shortName":"Desserts","icon":{"prefix":"https://ss3.4sqi.net/img/categories_v2/food/dessert_","suffix":".png"},"primary":true}],"verified":false,"stats":{"checkinsCount":92,"usersCount":45,"tipCount":0},"hasMenu":true,"menu":{"type":"Menu","label":"Menu","anchor":"View Menu","url":"https://foursquare.com/v/morfeys-cakes/4ada0a5cf964a520a81d21e3/menu","mobileUrl":"https://foursquare.com/v/4ada0a5cf964a520a81d21e3/device_menu"},"specials":{"count":0,"items":[]},"hereNow":{"count":0,"summary":"Nobody here","groups":[]},"referralId":"v-1439701896"},{"id":"55cfaffa498e6d87c457ea64","name":"Sweet As Cake HQ","contact":{},"location":{"lat":47.559043,"lng":-122.3164,"distance":5776,"cc":"US","city":"Seattle","state":"WA","country":"United States","formattedAddress":["Seattle, WA","United States"]},"categories":[{"id":"4bf58dd8d48988d16a941735","name":"Bakery","pluralName":"Bakeries","shortName":"Bakery","icon":{"prefix":"https://ss3.4sqi.net/img/categories_v2/food/bakery_","suffix":".png"},"primary":true}],"verified":false,"stats":{"checkinsCount":1,"usersCount":1,"tipCount":0},"specials":{"count":0,"items":[]},"hereNow":{"count":0,"summary":"Nobody here","groups":[]},"referralId":"v-1439701896"},{"id":"4efe10bd29c201c6fba7c275","name":"Cakes of Paradise","contact":{"phone":"2067631151","formattedPhone":"(206) 763-1151"},"location":{"address":"6322 6th Ave S","crossStreet":"btwn Michigan & River","lat":47.54520595312948,"lng":-122.32595086097717,"distance":7199,"postalCode":"98108","cc":"US","city":"Seattle","state":"WA","country":"United States","formattedAddress":["6322 6th Ave S (btwn Michigan & River)","Seattle, WA 98108","United States"]},"categories":[{"id":"4bf58dd8d48988d16a941735","name":"Bakery","pluralName":"Bakeries","shortName":"Bakery","icon":{"prefix":"https://ss3.4sqi.net/img/categories_v2/food/bakery_","suffix":".png"},"primary":true}],"verified":false,"stats":{"checkinsCount":188,"usersCount":99,"tipCount":4},"specials":{"count":0,"items":[]},"hereNow":{"count":0,"summary":"Nobody here","groups":[]},"referralId":"v-1439701896"},{"id":"45cd9976f964a5208e421fe3","name":"The Cheesecake Factory","contact":{"phone":"4254506000","formattedPhone":"(425) 450-6000","twitter":"cheesecake","facebook":"106628409154","facebookUsername":"thecheesecakefactory","facebookName":"The Cheesecake Factory"},"location":{"address":"401 Bellevue Way NE","crossStreet":"at NE 6th St","lat":47.61594199400247,"lng":-122.20200061798096,"distance":9862,"postalCode":"98004","cc":"US","city":"Bellevue","state":"WA","country":"United States","formattedAddress":["401 Bellevue Way NE (at NE 6th St)","Bellevue, WA 98004","United States"]},"categories":[{"id":"4bf58dd8d48988d14e941735","name":"American Restaurant","pluralName":"American Restaurants","shortName":"American","icon":{"prefix":"https://ss3.4sqi.net/img/categories_v2/food/default_","suffix":".png"},"primary":true}],"verified":true,"stats":{"checkinsCount":12653,"usersCount":7175,"tipCount":74},"url":"http://www.thecheesecakefactory.com","hasMenu":true,"menu":{"type":"Menu","label":"Menu","anchor":"View Menu","url":"https://foursquare.com/v/the-cheesecake-factory/45cd9976f964a5208e421fe3/menu","mobileUrl":"https://foursquare.com/v/45cd9976f964a5208e421fe3/device_menu"},"specials":{"count":0,"items":[]},"hereNow":{"count":0,"summary":"Nobody here","groups":[]},"referralId":"v-1439701896"},{"id":"4ac56782f964a520e2b120e3","name":"Home Cake Decorating Supply Co","contact":{"phone":"2065224300","formattedPhone":"(206) 522-4300"},"location":{"address":"9514 Roosevelt Way NE","crossStreet":"NE 95th Street","lat":47.698275446891785,"lng":-122.31743825,"distance":9929,"postalCode":"98115","cc":"US","city":"Seattle","state":"WA","country":"United States","formattedAddress":["9514 Roosevelt Way NE (NE 95th Street)","Seattle, WA 98115","United States"]},"categories":[{"id":"4bf58dd8d48988d1f5941735","name":"Gourmet Shop","pluralName":"Gourmet Shops","shortName":"Gourmet","icon":{"prefix":"https://ss3.4sqi.net/img/categories_v2/shops/food_gourmet_","suffix":".png"},"primary":true}],"verified":false,"stats":{"checkinsCount":166,"usersCount":96,"tipCount":5},"specials":{"count":0,"items":[]},"hereNow":{"count":0,"summary":"Nobody here","groups":[]},"referralId":"v-1439701896"},{"id":"4f3241c719836c91c7c5b3e7","name":"Camelot Catering and Custom Cake Design","contact":{"phone":"4256417278","formattedPhone":"(425) 641-7278"},"location":{"address":"12901 SE 69th Pl","lat":47.540878,"lng":-122.168152,"distance":14564,"postalCode":"98006","cc":"US","city":"Bellevue","state":"WA","country":"United States","formattedAddress":["12901 SE 69th Pl","Bellevue, WA 98006","United States"]},"categories":[{"id":"4d4b7105d754a06374d81259","name":"Food","pluralName":"Food","shortName":"Food","icon":{"prefix":"https://ss3.4sqi.net/img/categories_v2/food/default_","suffix":".png"},"primary":true}],"verified":false,"stats":{"checkinsCount":1,"usersCount":1,"tipCount":0},"url":"http://www.camelot-catering.com","specials":{"count":0,"items":[]},"hereNow":{"count":0,"summary":"Nobody here","groups":[]},"referralId":"v-1439701896"},{"id":"4eb60530b634a048606faf3c","name":"Cakes of Paradise","contact":{},"location":{"lat":47.55830938120825,"lng":-122.164453646972,"distance":13895,"postalCode":"98006","cc":"US","city":"Bellevue","state":"WA","country":"United States","formattedAddress":["Bellevue, WA 98006","United States"]},"categories":[{"id":"4bf58dd8d48988d1d0941735","name":"Dessert Shop","pluralName":"Dessert Shops","shortName":"Desserts","icon":{"prefix":"https://ss3.4sqi.net/img/categories_v2/food/dessert_","suffix":".png"},"primary":true}],"verified":false,"stats":{"checkinsCount":3,"usersCount":2,"tipCount":0},"specials":{"count":0,"items":[]},"hereNow":{"count":0,"summary":"Nobody here","groups":[]},"referralId":"v-1439701896"},{"id":"4f32893219836c91c7e15fc1","name":"Cakes of Course","contact":{"phone":"2063672253","formattedPhone":"(206) 367-2253"},"location":{"address":"3223 NE 145th St","lat":47.733678,"lng":-122.292643,"distance":14130,"postalCode":"98155","cc":"US","city":"Seattle","state":"WA","country":"United States","formattedAddress":["3223 NE 145th St","Seattle, WA 98155","United States"]},"categories":[{"id":"4bf58dd8d48988d16a941735","name":"Bakery","pluralName":"Bakeries","shortName":"Bakery","icon":{"prefix":"https://ss3.4sqi.net/img/categories_v2/food/bakery_","suffix":".png"},"primary":true}],"verified":false,"stats":{"checkinsCount":2,"usersCount":2,"tipCount":0},"specials":{"count":0,"items":[]},"hereNow":{"count":0,"summary":"Nobody here","groups":[]},"referralId":"v-1439701896"},{"id":"529b7d8711d24f842643dd1c","name":"Homie Cakes","contact":{},"location":{"lat":47.523969,"lng":-122.36829,"distance":9902,"cc":"US","city":"Seattle","state":"WA","country":"United States","formattedAddress":["Seattle, WA","United States"]},"categories":[{"id":"4bf58dd8d48988d143941735","name":"Breakfast Spot","pluralName":"Breakfast Spots","shortName":"Breakfast","icon":{"prefix":"https://ss3.4sqi.net/img/categories_v2/food/breakfast_","suffix":".png"},"primary":true}],"verified":false,"stats":{"checkinsCount":1,"usersCount":1,"tipCount":1},"specials":{"count":0,"items":[]},"hereNow":{"count":0,"summary":"Nobody here","groups":[]},"referralId":"v-1439701896"},{"id":"4e619f2c81301b93228c7bfb","name":"Honey Crumb Cake Studio","contact":{"phone":"4255779220","formattedPhone":"(425) 577-9220"},"location":{"address":"177 Western Ave W","crossStreet":"Denny","lat":47.571502491565774,"lng":-122.11932420730591,"distance":16603,"postalCode":"98119","cc":"US","city":"Seattle","state":"WA","country":"United States","formattedAddress":["177 Western Ave W (Denny)","Seattle, WA 98119","United States"]},"categories":[{"id":"4bf58dd8d48988d16a941735","name":"Bakery","pluralName":"Bakeries","shortName":"Bakery","icon":{"prefix":"https://ss3.4sqi.net/img/categories_v2/food/bakery_","suffix":".png"},"primary":true}],"verified":false,"stats":{"checkinsCount":3,"usersCount":3,"tipCount":1},"specials":{"count":0,"items":[]},"hereNow":{"count":0,"summary":"Nobody here","groups":[]},"referralId":"v-1439701896"},{"id":"4da0f8089aa4721e772bf119","name":"Cakebite Kitchen","contact":{},"location":{"crossStreet":"coal creek pkwy se","lat":47.51335127775772,"lng":-122.15484195017316,"distance":17156,"postalCode":"98059","cc":"US","city":"Newcastle","state":"WA","country":"United States","formattedAddress":["coal creek pkwy se","Newcastle, WA 98059","United States"]},"categories":[{"id":"4bf58dd8d48988d16a941735","name":"Bakery","pluralName":"Bakeries","shortName":"Bakery","icon":{"prefix":"https://ss3.4sqi.net/img/categories_v2/food/bakery_","suffix":".png"},"primary":true}],"verified":false,"stats":{"checkinsCount":5,"usersCount":1,"tipCount":0},"specials":{"count":0,"items":[]},"hereNow":{"count":0,"summary":"Nobody here","groups":[]},"referralId":"v-1439701896"},{"id":"4e56ad98aeb784cb898b49cf","name":"Delivering Cakebites","contact":{},"location":{"address":"Www.bestcakebites.com","lat":47.5726906,"lng":-122.16944565,"distance":12958,"cc":"US","state":"Washington","country":"United States","formattedAddress":["Www.bestcakebites.com","Washington","United States"]},"categories":[{"id":"4bf58dd8d48988d16a941735","name":"Bakery","pluralName":"Bakeries","shortName":"Bakery","icon":{"prefix":"https://ss3.4sqi.net/img/categories_v2/food/bakery_","suffix":".png"},"primary":true}],"verified":false,"stats":{"checkinsCount":2,"usersCount":1,"tipCount":0},"specials":{"count":0,"items":[]},"hereNow":{"count":0,"summary":"Nobody here","groups":[]},"referralId":"v-1439701896"},{"id":"5204f672bce6351efbf0b456","name":"Daft Cake Galaxy","contact":{},"location":{"address":"Galaxy City","lat":47.76191644164879,"lng":-122.34651803970337,"distance":16974,"cc":"US","city":"Shoreline","state":"WA","country":"United States","formattedAddress":["Galaxy City","Shoreline, WA","United States"]},"categories":[{"id":"4bf58dd8d48988d121941735","name":"Lounge","pluralName":"Lounges","shortName":"Lounge","icon":{"prefix":"https://ss3.4sqi.net/img/categories_v2/nightlife/default_","suffix":".png"},"primary":true}],"verified":false,"stats":{"checkinsCount":0,"usersCount":0,"tipCount":1},"specials":{"count":0,"items":[]},"hereNow":{"count":0,"summary":"Nobody here","groups":[]},"referralId":"v-1439701896"}]}}